[
  {
    "id": "garage-shs-hatch",
    "category": "garage",
    "realName": "Edificação de apoio GDF 0137II2B0066",
    "gameName": "Garagem do Hatch",
    "lat": -15.79464,
    "lon": -47.88879,
    "sourceType": "adapted-building",
    "sourceId": "1528581506",
    "buildingId": "1528581506",
    "address": "Setor Hoteleiro Sul, Quadra 3, Brasília, DF",
    "entrance": { "lat": -15.7946958, "lon": -47.8891575, "x": -744.43, "y": 55.13, "graphNodeId": "984930862" },
    "stopPoint": { "lat": -15.79472, "lon": -47.88888, "x": -714.739, "y": 57.821 },
    "accessRoad": "OSM way 84830170 (highway=service, SHS Quadra 2)",
    "sideOfRoad": "lado norte da alça de serviço do SHS",
    "confidence": "medium",
    "functionFictional": true,
    "regionId": "centro",
    "sourceUrl": "https://www.openstreetmap.org/way/1528581506",
    "functionNote": "A edificação e seu footprint são reais; a função de garagem e o nome são fictícios."
  },
  {
    "id": "garage-base-lago-sul",
    "category": "garage",
    "realName": "Edificação comercial OSM 96165939",
    "gameName": "Base Regional Lago Sul",
    "lat": -15.8571828525,
    "lon": -47.8327686557,
    "sourceType": "adapted-building",
    "sourceId": "96165939",
    "buildingId": "96165939",
    "address": "Lago Sul, Brasília, DF",
    "entrance": { "lat": -15.856954953, "lon": -47.832815011, "x": 5284.044, "y": 6978.042, "graphNodeId": "8994973294" },
    "stopPoint": { "lat": -15.857068903, "lon": -47.832791833, "x": 5286.524, "y": 6990.713 },
    "accessRoad": "OSM way 971860641 (highway=service)",
    "sideOfRoad": "recuo seguro da edificação comercial",
    "confidence": "medium",
    "functionFictional": true,
    "regionId": "lago-sul",
    "sourceUrl": "https://www.openstreetmap.org/way/96165939",
    "functionNote": "O prédio e seu footprint são reais; a base operacional e o nome são fictícios."
  },
  {
    "id": "garage-base-jardim-botanico",
    "category": "garage",
    "realName": "Comércio — Avenida do Sol",
    "gameName": "Base Regional Jardim Botânico",
    "lat": -15.8673553,
    "lon": -47.7824385375,
    "sourceType": "adapted-building",
    "sourceId": "422725959",
    "buildingId": "422725959",
    "address": "Avenida do Sol, km 5,7, Jardim Botânico, Brasília, DF",
    "entrance": { "lat": -15.867274464, "lon": -47.782607845, "x": 10656.059, "y": 8125.521, "graphNodeId": "1718638471" },
    "stopPoint": { "lat": -15.867318924, "lon": -47.782514726, "x": 10666.022, "y": 8130.465 },
    "accessRoad": "OSM way 159759110 (highway=service)",
    "sideOfRoad": "recuo de estacionamento do comércio",
    "confidence": "medium",
    "functionFictional": true,
    "regionId": "jardim-botanico",
    "sourceUrl": "https://www.openstreetmap.org/way/422725959",
    "functionNote": "O comércio e seu footprint são reais; a base operacional e o nome são fictícios."
  },
  {
    "id": "garage-base-lago-norte",
    "category": "garage",
    "realName": "Edificação de serviço OSM 1214668095",
    "gameName": "Base Regional Lago Norte",
    "lat": -15.73228975,
    "lon": -47.7871589625,
    "sourceType": "adapted-building",
    "sourceId": "1214668095",
    "buildingId": "1214668095",
    "address": "Lago Norte, Brasília, DF",
    "entrance": { "lat": -15.732828281, "lon": -47.787357457, "x": 10147.865, "y": -6824.233, "graphNodeId": "9174552625" },
    "stopPoint": { "lat": -15.732666722, "lon": -47.787297909, "x": 10154.236, "y": -6842.198 },
    "accessRoad": "OSM way 993056032 (highway=service)",
    "sideOfRoad": "acesso e recuo da edificação de serviço",
    "confidence": "medium",
    "functionFictional": true,
    "regionId": "lago-norte",
    "sourceUrl": "https://www.openstreetmap.org/way/1214668095",
    "functionNote": "O prédio e seu footprint são reais; a base operacional e o nome são fictícios."
  }
]
